header: 
  seq: 0
  stamp: 
    secs: 1513422668
    nsecs: 792358836
  frame_id: map
pose: 
  pose: 
    position: 
      x: 0.0229322372282
      y: -0.00707472301
      z: 0.0
    orientation: 
      x: 0.0
      y: 0.0
      z: -0.00323552534611
      w: 0.999994765674
  covariance: [0.22392981054844308, 0.005557887901612695, 0.0, 0.0, 0.0, 0.0, 0.005557887901612698, 0.18850772509681643, 0.0, 0.0, 0.0, 0.0, 0.0, 0.0, 0.0, 0.0, 0.0, 0.0, 0.0, 0.0, 0.0, 0.0, 0.0, 0.0, 0.0, 0.0, 0.0, 0.0, 0.0, 0.0, 0.0, 0.0, 0.0, 0.0, 0.0, 0.062285036207984215]
---
header: 
  seq: 1
  stamp: 
    secs: 1513422828
    nsecs: 113972714
  frame_id: map
pose: 
  pose: 
    position: 
      x: 0.243438796592
      y: -0.0118083414757
      z: 0.0
    orientation: 
      x: 0.0
      y: 0.0
      z: 0.0790808486351
      w: 0.996868205622
  covariance: [0.1944872171149083, 0.010321578775187825, 0.0, 0.0, 0.0, 0.0, 0.010321578775187829, 0.1324936632633913, 0.0, 0.0, 0.0, 0.0, 0.0, 0.0, 0.0, 0.0, 0.0, 0.0, 0.0, 0.0, 0.0, 0.0, 0.0, 0.0, 0.0, 0.0, 0.0, 0.0, 0.0, 0.0, 0.0, 0.0, 0.0, 0.0, 0.0, 0.05059888824408016]
---
header: 
  seq: 2
  stamp: 
    secs: 1513422852
    nsecs: 893199953
  frame_id: map
pose: 
  pose: 
    position: 
      x: 0.690970516783
      y: 0.0926966319164
      z: 0.0
    orientation: 
      x: 0.0
      y: 0.0
      z: 0.128720137745
      w: 0.991680959855
  covariance: [0.14472249265771775, 0.009589155991932108, 0.0, 0.0, 0.0, 0.0, 0.009589155991932122, 0.044053444731861444, 0.0, 0.0, 0.0, 0.0, 0.0, 0.0, 0.0, 0.0, 0.0, 0.0, 0.0, 0.0, 0.0, 0.0, 0.0, 0.0, 0.0, 0.0, 0.0, 0.0, 0.0, 0.0, 0.0, 0.0, 0.0, 0.0, 0.0, 0.027407260004383757]
---
header: 
  seq: 3
  stamp: 
    secs: 1513422856
    nsecs: 277484084
  frame_id: map
pose: 
  pose: 
    position: 
      x: 1.09253681345
      y: 0.187331321752
      z: 0.0
    orientation: 
      x: 0.0
      y: 0.0
      z: 0.125896145826
      w: 0.992043426704
  covariance: [0.1163911946982008, 0.004716829836240333, 0.0, 0.0, 0.0, 0.0, 0.004716829836240333, 0.013695056072483482, 0.0, 0.0, 0.0, 0.0, 0.0, 0.0, 0.0, 0.0, 0.0, 0.0, 0.0, 0.0, 0.0, 0.0, 0.0, 0.0, 0.0, 0.0, 0.0, 0.0, 0.0, 0.0, 0.0, 0.0, 0.0, 0.0, 0.0, 0.015400049704777092]
---
header: 
  seq: 4
  stamp: 
    secs: 1513422859
    nsecs: 660860266
  frame_id: map
pose: 
  pose: 
    position: 
      x: 1.47495463313
      y: 0.276443039322
      z: 0.0
    orientation: 
      x: 0.0
      y: 0.0
      z: 0.12051089586
      w: 0.992712004551
  covariance: [0.10311775762102249, 0.0005647768491723881, 0.0, 0.0, 0.0, 0.0, 0.0005647768491723881, 0.01190230029727253, 0.0, 0.0, 0.0, 0.0, 0.0, 0.0, 0.0, 0.0, 0.0, 0.0, 0.0, 0.0, 0.0, 0.0, 0.0, 0.0, 0.0, 0.0, 0.0, 0.0, 0.0, 0.0, 0.0, 0.0, 0.0, 0.0, 0.0, 0.010300740705284863]
---
header: 
  seq: 5
  stamp: 
    secs: 1513422869
    nsecs: 413119430
  frame_id: map
pose: 
  pose: 
    position: 
      x: 1.84668636393
      y: 0.329024047988
      z: 0.0
    orientation: 
      x: 0.0
      y: 0.0
      z: 0.0778003151376
      w: 0.996968961886
  covariance: [0.08161868125371718, 0.0007490472346817212, 0.0, 0.0, 0.0, 0.0, 0.0007490472346817212, 0.005570692521627868, 0.0, 0.0, 0.0, 0.0, 0.0, 0.0, 0.0, 0.0, 0.0, 0.0, 0.0, 0.0, 0.0, 0.0, 0.0, 0.0, 0.0, 0.0, 0.0, 0.0, 0.0, 0.0, 0.0, 0.0, 0.0, 0.0, 0.0, 0.006858071531064118]
---
header: 
  seq: 6
  stamp: 
    secs: 1513422872
    nsecs: 796090377
  frame_id: map
pose: 
  pose: 
    position: 
      x: 2.20709522471
      y: 0.377558762896
      z: 0.0
    orientation: 
      x: 0.0
      y: 0.0
      z: 0.0359783124919
      w: 0.999352570933
  covariance: [0.04864004441506875, 0.0011905589676811656, 0.0, 0.0, 0.0, 0.0, 0.0011905589676811656, 0.0036456316191064986, 0.0, 0.0, 0.0, 0.0, 0.0, 0.0, 0.0, 0.0, 0.0, 0.0, 0.0, 0.0, 0.0, 0.0, 0.0, 0.0, 0.0, 0.0, 0.0, 0.0, 0.0, 0.0, 0.0, 0.0, 0.0, 0.0, 0.0, 0.004659523420359462]
---
header: 
  seq: 7
  stamp: 
    secs: 1513422875
    nsecs: 979910008
  frame_id: map
pose: 
  pose: 
    position: 
      x: 2.56918272838
      y: 0.393252598962
      z: 0.0
    orientation: 
      x: 0.0
      y: 0.0
      z: 0.0340188706489
      w: 0.99942119071
  covariance: [0.035963100042366136, 0.0003117362649320832, 0.0, 0.0, 0.0, 0.0, 0.0003117362649323052, 0.003956435905108607, 0.0, 0.0, 0.0, 0.0, 0.0, 0.0, 0.0, 0.0, 0.0, 0.0, 0.0, 0.0, 0.0, 0.0, 0.0, 0.0, 0.0, 0.0, 0.0, 0.0, 0.0, 0.0, 0.0, 0.0, 0.0, 0.0, 0.0, 0.003634425631038681]
---
header: 
  seq: 8
  stamp: 
    secs: 1513422879
    nsecs: 164512146
  frame_id: map
pose: 
  pose: 
    position: 
      x: 2.93366881071
      y: 0.41495727154
      z: 0.0
    orientation: 
      x: 0.0
      y: 0.0
      z: 0.035382129322
      w: 0.999373856434
  covariance: [0.021064393193528375, 0.0007508670748666013, 0.0, 0.0, 0.0, 0.0, 0.0007508670748666013, 0.004439271514993293, 0.0, 0.0, 0.0, 0.0, 0.0, 0.0, 0.0, 0.0, 0.0, 0.0, 0.0, 0.0, 0.0, 0.0, 0.0, 0.0, 0.0, 0.0, 0.0, 0.0, 0.0, 0.0, 0.0, 0.0, 0.0, 0.0, 0.0, 0.00296098653457672]
---
header: 
  seq: 9
  stamp: 
    secs: 1513422882
    nsecs: 349360571
  frame_id: map
pose: 
  pose: 
    position: 
      x: 3.31208133795
      y: 0.435889972029
      z: 0.0
    orientation: 
      x: 0.0
      y: 0.0
      z: 0.0350402515781
      w: 0.999385901826
  covariance: [0.015974385167744742, 0.0013835392155516768, 0.0, 0.0, 0.0, 0.0, 0.0013835392155516768, 0.004599215725449524, 0.0, 0.0, 0.0, 0.0, 0.0, 0.0, 0.0, 0.0, 0.0, 0.0, 0.0, 0.0, 0.0, 0.0, 0.0, 0.0, 0.0, 0.0, 0.0, 0.0, 0.0, 0.0, 0.0, 0.0, 0.0, 0.0, 0.0, 0.0021966068844444194]
---
header: 
  seq: 10
  stamp: 
    secs: 1513422885
    nsecs: 533762962
  frame_id: map
pose: 
  pose: 
    position: 
      x: 3.71099767846
      y: 0.458344519205
      z: 0.0
    orientation: 
      x: 0.0
      y: 0.0
      z: 0.0348254004054
      w: 0.999393411769
  covariance: [0.018612774412996913, 0.002060664839717008, 0.0, 0.0, 0.0, 0.0, 0.002060664839717008, 0.005379809416097864, 0.0, 0.0, 0.0, 0.0, 0.0, 0.0, 0.0, 0.0, 0.0, 0.0, 0.0, 0.0, 0.0, 0.0, 0.0, 0.0, 0.0, 0.0, 0.0, 0.0, 0.0, 0.0, 0.0, 0.0, 0.0, 0.0, 0.0, 0.0021217476449205686]
---
header: 
  seq: 11
  stamp: 
    secs: 1513422888
    nsecs: 718610783
  frame_id: map
pose: 
  pose: 
    position: 
      x: 4.11096400898
      y: 0.488907858576
      z: 0.0
    orientation: 
      x: 0.0
      y: 0.0
      z: 0.0369787346603
      w: 0.9993160527
  covariance: [0.015646361271876685, 0.0023364297567054493, 0.0, 0.0, 0.0, 0.0, 0.0023364297567054493, 0.0054937020451121255, 0.0, 0.0, 0.0, 0.0, 0.0, 0.0, 0.0, 0.0, 0.0, 0.0, 0.0, 0.0, 0.0, 0.0, 0.0, 0.0, 0.0, 0.0, 0.0, 0.0, 0.0, 0.0, 0.0, 0.0, 0.0, 0.0, 0.0, 0.0015649344584940834]
---
header: 
  seq: 12
  stamp: 
    secs: 1513422891
    nsecs: 903242977
  frame_id: map
pose: 
  pose: 
    position: 
      x: 4.5262780022
      y: 0.524445323572
      z: 0.0
    orientation: 
      x: 0.0
      y: 0.0
      z: 0.0388376701057
      w: 0.99924553308
  covariance: [0.02125632278379541, 0.002045841246325786, 0.0, 0.0, 0.0, 0.0, 0.002045841246325786, 0.0044329815841492315, 0.0, 0.0, 0.0, 0.0, 0.0, 0.0, 0.0, 0.0, 0.0, 0.0, 0.0, 0.0, 0.0, 0.0, 0.0, 0.0, 0.0, 0.0, 0.0, 0.0, 0.0, 0.0, 0.0, 0.0, 0.0, 0.0, 0.0, 0.0012507635477837025]
---
header: 
  seq: 13
  stamp: 
    secs: 1513422895
    nsecs:  88162490
  frame_id: map
pose: 
  pose: 
    position: 
      x: 4.94310877414
      y: 0.556095114109
      z: 0.0
    orientation: 
      x: 0.0
      y: 0.0
      z: 0.0407725218533
      w: 0.999168454997
  covariance: [0.034641552839673295, 0.0012911742359755785, 0.0, 0.0, 0.0, 0.0, 0.0012911742359755785, 0.003920378626139365, 0.0, 0.0, 0.0, 0.0, 0.0, 0.0, 0.0, 0.0, 0.0, 0.0, 0.0, 0.0, 0.0, 0.0, 0.0, 0.0, 0.0, 0.0, 0.0, 0.0, 0.0, 0.0, 0.0, 0.0, 0.0, 0.0, 0.0, 0.0011803239525896383]
---
header: 
  seq: 14
  stamp: 
    secs: 1513422908
    nsecs: 522272040
  frame_id: map
pose: 
  pose: 
    position: 
      x: 5.35050180381
      y: 0.576236016558
      z: 0.0
    orientation: 
      x: 0.0
      y: 0.0
      z: 0.0396954842329
      w: 0.999211823655
  covariance: [0.03943131039223857, 0.0011050092983539983, 0.0, 0.0, 0.0, 0.0, 0.0011050092983535542, 0.004138477238802674, 0.0, 0.0, 0.0, 0.0, 0.0, 0.0, 0.0, 0.0, 0.0, 0.0, 0.0, 0.0, 0.0, 0.0, 0.0, 0.0, 0.0, 0.0, 0.0, 0.0, 0.0, 0.0, 0.0, 0.0, 0.0, 0.0, 0.0, 0.0012304208675436902]
---
header: 
  seq: 15
  stamp: 
    secs: 1513422911
    nsecs: 706612840
  frame_id: map
pose: 
  pose: 
    position: 
      x: 5.75718208741
      y: 0.594956363726
      z: 0.0
    orientation: 
      x: 0.0
      y: 0.0
      z: 0.0389339548604
      w: 0.999241786135
  covariance: [0.048439179303052526, 0.0015416432919193035, 0.0, 0.0, 0.0, 0.0, 0.0015416432919193035, 0.0038414355165843905, 0.0, 0.0, 0.0, 0.0, 0.0, 0.0, 0.0, 0.0, 0.0, 0.0, 0.0, 0.0, 0.0, 0.0, 0.0, 0.0, 0.0, 0.0, 0.0, 0.0, 0.0, 0.0, 0.0, 0.0, 0.0, 0.0, 0.0, 0.0011389675715158952]
---
header: 
  seq: 16
  stamp: 
    secs: 1513422914
    nsecs: 891022160
  frame_id: map
pose: 
  pose: 
    position: 
      x: 6.15401249051
      y: 0.619495061201
      z: 0.0
    orientation: 
      x: 0.0
      y: 0.0
      z: 0.0389144097628
      w: 0.999242547489
  covariance: [0.04241207864494356, 0.0008059015298642613, 0.0, 0.0, 0.0, 0.0, 0.0008059015298642613, 0.0034811049378453696, 0.0, 0.0, 0.0, 0.0, 0.0, 0.0, 0.0, 0.0, 0.0, 0.0, 0.0, 0.0, 0.0, 0.0, 0.0, 0.0, 0.0, 0.0, 0.0, 0.0, 0.0, 0.0, 0.0, 0.0, 0.0, 0.0, 0.0, 0.0010496115189212864]
---
header: 
  seq: 17
  stamp: 
    secs: 1513422918
    nsecs:  75606129
  frame_id: map
pose: 
  pose: 
    position: 
      x: 6.55547924642
      y: 0.647243353465
      z: 0.0
    orientation: 
      x: 0.0
      y: 0.0
      z: 0.04022540552
      w: 0.999190630836
  covariance: [0.0406173083296153, 0.0006120082321672271, 0.0, 0.0, 0.0, 0.0, 0.0006120082321672271, 0.00325714762420265, 0.0, 0.0, 0.0, 0.0, 0.0, 0.0, 0.0, 0.0, 0.0, 0.0, 0.0, 0.0, 0.0, 0.0, 0.0, 0.0, 0.0, 0.0, 0.0, 0.0, 0.0, 0.0, 0.0, 0.0, 0.0, 0.0, 0.0, 0.0012851261929227897]
---
header: 
  seq: 18
  stamp: 
    secs: 1513422923
    nsecs: 847044694
  frame_id: map
pose: 
  pose: 
    position: 
      x: 6.97519227216
      y: 0.679796593177
      z: 0.0
    orientation: 
      x: 0.0
      y: 0.0
      z: 0.0401907295697
      w: 0.999192026218
  covariance: [0.04375835992231458, 0.00014372794232109243, 0.0, 0.0, 0.0, 0.0, 0.0001437279423219806, 0.0028592566454997415, 0.0, 0.0, 0.0, 0.0, 0.0, 0.0, 0.0, 0.0, 0.0, 0.0, 0.0, 0.0, 0.0, 0.0, 0.0, 0.0, 0.0, 0.0, 0.0, 0.0, 0.0, 0.0, 0.0, 0.0, 0.0, 0.0, 0.0, 0.0013675336305729003]
---
header: 
  seq: 19
  stamp: 
    secs: 1513422927
    nsecs:  32052750
  frame_id: map
pose: 
  pose: 
    position: 
      x: 7.38391593279
      y: 0.715326404307
      z: 0.0
    orientation: 
      x: 0.0
      y: 0.0
      z: 0.0435244226045
      w: 0.999052363311
  covariance: [0.05549059541669976, -0.0003627816886693225, 0.0, 0.0, 0.0, 0.0, -0.0003627816886693225, 0.00272963915745128, 0.0, 0.0, 0.0, 0.0, 0.0, 0.0, 0.0, 0.0, 0.0, 0.0, 0.0, 0.0, 0.0, 0.0, 0.0, 0.0, 0.0, 0.0, 0.0, 0.0, 0.0, 0.0, 0.0, 0.0, 0.0, 0.0, 0.0, 0.001296364755580569]
---
header: 
  seq: 20
  stamp: 
    secs: 1513422930
    nsecs: 216871397
  frame_id: map
pose: 
  pose: 
    position: 
      x: 7.78802728324
      y: 0.749688982305
      z: 0.0
    orientation: 
      x: 0.0
      y: 0.0
      z: 0.0449678616875
      w: 0.998988434075
  covariance: [0.06240415343569339, -0.001803739617037614, 0.0, 0.0, 0.0, 0.0, -0.001803739617037614, 0.003105997031516261, 0.0, 0.0, 0.0, 0.0, 0.0, 0.0, 0.0, 0.0, 0.0, 0.0, 0.0, 0.0, 0.0, 0.0, 0.0, 0.0, 0.0, 0.0, 0.0, 0.0, 0.0, 0.0, 0.0, 0.0, 0.0, 0.0, 0.0, 0.001271841392999474]
---
header: 
  seq: 21
  stamp: 
    secs: 1513422934
    nsecs: 993690616
  frame_id: map
pose: 
  pose: 
    position: 
      x: 8.1829466506
      y: 0.790741900173
      z: 0.0
    orientation: 
      x: 0.0
      y: 0.0
      z: 0.0480774254176
      w: 0.998843611966
  covariance: [0.04141558251025401, -0.0017536274875809, 0.0, 0.0, 0.0, 0.0, -0.0017536274875809, 0.0027649452161556676, 0.0, 0.0, 0.0, 0.0, 0.0, 0.0, 0.0, 0.0, 0.0, 0.0, 0.0, 0.0, 0.0, 0.0, 0.0, 0.0, 0.0, 0.0, 0.0, 0.0, 0.0, 0.0, 0.0, 0.0, 0.0, 0.0, 0.0, 0.001245887408681147]
---
header: 
  seq: 22
  stamp: 
    secs: 1513422938
    nsecs: 178278999
  frame_id: map
pose: 
  pose: 
    position: 
      x: 8.56874594224
      y: 0.837395686864
      z: 0.0
    orientation: 
      x: 0.0
      y: 0.0
      z: 0.0508277489664
      w: 0.998707434605
  covariance: [0.03178082371850621, -0.0009215604158381296, 0.0, 0.0, 0.0, 0.0, -0.0009215604158381296, 0.0034217905673789017, 0.0, 0.0, 0.0, 0.0, 0.0, 0.0, 0.0, 0.0, 0.0, 0.0, 0.0, 0.0, 0.0, 0.0, 0.0, 0.0, 0.0, 0.0, 0.0, 0.0, 0.0, 0.0, 0.0, 0.0, 0.0, 0.0, 0.0, 0.0014436369147500826]
---
header: 
  seq: 23
  stamp: 
    secs: 1513422941
    nsecs: 362688105
  frame_id: map
pose: 
  pose: 
    position: 
      x: 8.9654178185
      y: 0.884838832087
      z: 0.0
    orientation: 
      x: 0.0
      y: 0.0
      z: 0.0519567653935
      w: 0.998649335117
  covariance: [0.029689724364672543, -0.001280015430247694, 0.0, 0.0, 0.0, 0.0, -0.001280015430247694, 0.003544566204641164, 0.0, 0.0, 0.0, 0.0, 0.0, 0.0, 0.0, 0.0, 0.0, 0.0, 0.0, 0.0, 0.0, 0.0, 0.0, 0.0, 0.0, 0.0, 0.0, 0.0, 0.0, 0.0, 0.0, 0.0, 0.0, 0.0, 0.0, 0.0014503181002976505]
---
header: 
  seq: 24
  stamp: 
    secs: 1513422948
    nsecs: 229316041
  frame_id: map
pose: 
  pose: 
    position: 
      x: 9.3840144782
      y: 0.909814242111
      z: 0.0
    orientation: 
      x: 0.0
      y: 0.0
      z: 0.0159035778553
      w: 0.999873530108
  covariance: [0.03318098322829144, -0.000610298671182008, 0.0, 0.0, 0.0, 0.0, -0.000610298671182008, 0.004028264047649888, 0.0, 0.0, 0.0, 0.0, 0.0, 0.0, 0.0, 0.0, 0.0, 0.0, 0.0, 0.0, 0.0, 0.0, 0.0, 0.0, 0.0, 0.0, 0.0, 0.0, 0.0, 0.0, 0.0, 0.0, 0.0, 0.0, 0.0, 0.0014265025012372783]
---
header: 
  seq: 25
  stamp: 
    secs: 1513422951
    nsecs: 413891846
  frame_id: map
pose: 
  pose: 
    position: 
      x: 9.78062137702
      y: 0.932867507478
      z: 0.0
    orientation: 
      x: 0.0
      y: 0.0
      z: 0.0196192976987
      w: 0.999807523055
  covariance: [0.030235951110583414, 0.00011957777807047876, 0.0, 0.0, 0.0, 0.0, 0.00011957777807047876, 0.004025803484754342, 0.0, 0.0, 0.0, 0.0, 0.0, 0.0, 0.0, 0.0, 0.0, 0.0, 0.0, 0.0, 0.0, 0.0, 0.0, 0.0, 0.0, 0.0, 0.0, 0.0, 0.0, 0.0, 0.0, 0.0, 0.0, 0.0, 0.0, 0.0013781688604108167]
---
header: 
  seq: 26
  stamp: 
    secs: 1513422954
    nsecs: 598298705
  frame_id: map
pose: 
  pose: 
    position: 
      x: 10.1986062564
      y: 0.957447775372
      z: 0.0
    orientation: 
      x: 0.0
      y: 0.0
      z: 0.0227661556053
      w: 0.999740817492
  covariance: [0.03186546127102474, 0.0013942249975276155, 0.0, 0.0, 0.0, 0.0, 0.0013942249975311682, 0.004017510143223935, 0.0, 0.0, 0.0, 0.0, 0.0, 0.0, 0.0, 0.0, 0.0, 0.0, 0.0, 0.0, 0.0, 0.0, 0.0, 0.0, 0.0, 0.0, 0.0, 0.0, 0.0, 0.0, 0.0, 0.0, 0.0, 0.0, 0.0, 0.001193956547639661]
---
header: 
  seq: 27
  stamp: 
    secs: 1513422959
    nsecs: 972037503
  frame_id: map
pose: 
  pose: 
    position: 
      x: 10.6008640223
      y: 0.989016181993
      z: 0.0
    orientation: 
      x: 0.0
      y: 0.0
      z: 0.0263559752284
      w: 0.999652620949
  covariance: [0.03170110243964075, 0.001711435555543872, 0.0, 0.0, 0.0, 0.0, 0.001711435555543872, 0.0036576327723156776, 0.0, 0.0, 0.0, 0.0, 0.0, 0.0, 0.0, 0.0, 0.0, 0.0, 0.0, 0.0, 0.0, 0.0, 0.0, 0.0, 0.0, 0.0, 0.0, 0.0, 0.0, 0.0, 0.0, 0.0, 0.0, 0.0, 0.0, 0.0011906159688908088]
---
header: 
  seq: 28
  stamp: 
    secs: 1513422963
    nsecs: 654146731
  frame_id: map
pose: 
  pose: 
    position: 
      x: 10.9977489345
      y: 1.01305617343
      z: 0.0
    orientation: 
      x: 0.0
      y: 0.0
      z: -0.00580144470089
      w: 0.999983171478
  covariance: [0.03535439113973382, 0.0023466907182232433, 0.0, 0.0, 0.0, 0.0, 0.0023466907182232433, 0.00371307680827071, 0.0, 0.0, 0.0, 0.0, 0.0, 0.0, 0.0, 0.0, 0.0, 0.0, 0.0, 0.0, 0.0, 0.0, 0.0, 0.0, 0.0, 0.0, 0.0, 0.0, 0.0, 0.0, 0.0, 0.0, 0.0, 0.0, 0.0, 0.0012055865670515373]
---
header: 
  seq: 29
  stamp: 
    secs: 1513422966
    nsecs: 838791056
  frame_id: map
pose: 
  pose: 
    position: 
      x: 11.4265897934
      y: 1.02639419071
      z: 0.0
    orientation: 
      x: 0.0
      y: 0.0
      z: -0.00211558591402
      w: 0.999997762146
  covariance: [0.045659937936875394, 0.00373385472293819, 0.0, 0.0, 0.0, 0.0, 0.00373385472293819, 0.0037168560083553626, 0.0, 0.0, 0.0, 0.0, 0.0, 0.0, 0.0, 0.0, 0.0, 0.0, 0.0, 0.0, 0.0, 0.0, 0.0, 0.0, 0.0, 0.0, 0.0, 0.0, 0.0, 0.0, 0.0, 0.0, 0.0, 0.0, 0.0, 0.001257751741872543]
---
header: 
  seq: 30
  stamp: 
    secs: 1513422970
    nsecs:  23160926
  frame_id: map
pose: 
  pose: 
    position: 
      x: 11.859788947
      y: 1.04529439461
      z: 0.0
    orientation: 
      x: 0.0
      y: 0.0
      z: 0.000876432254205
      w: 0.999999615933
  covariance: [0.041557664875483624, 0.003366837184376692, 0.0, 0.0, 0.0, 0.0, 0.003366837184376692, 0.003394796087313745, 0.0, 0.0, 0.0, 0.0, 0.0, 0.0, 0.0, 0.0, 0.0, 0.0, 0.0, 0.0, 0.0, 0.0, 0.0, 0.0, 0.0, 0.0, 0.0, 0.0, 0.0, 0.0, 0.0, 0.0, 0.0, 0.0, 0.0, 0.001316255950743521]
---
header: 
  seq: 31
  stamp: 
    secs: 1513422973
    nsecs: 207607094
  frame_id: map
pose: 
  pose: 
    position: 
      x: 12.2795433999
      y: 1.05024892636
      z: 0.0
    orientation: 
      x: 0.0
      y: 0.0
      z: -0.000802289822135
      w: 0.999999678165
  covariance: [0.040174626433071126, 0.003648480557458811, 0.0, 0.0, 0.0, 0.0, 0.003648480557458811, 0.0038397078975729304, 0.0, 0.0, 0.0, 0.0, 0.0, 0.0, 0.0, 0.0, 0.0, 0.0, 0.0, 0.0, 0.0, 0.0, 0.0, 0.0, 0.0, 0.0, 0.0, 0.0, 0.0, 0.0, 0.0, 0.0, 0.0, 0.0, 0.0, 0.0013052232315159539]
---
header: 
  seq: 32
  stamp: 
    secs: 1513422978
    nsecs: 979190008
  frame_id: map
pose: 
  pose: 
    position: 
      x: 12.7003070356
      y: 1.05596859674
      z: 0.0
    orientation: 
      x: 0.0
      y: 0.0
      z: -0.00073660987014
      w: 0.999999728703
  covariance: [0.03689445365000665, 0.00459066589716528, 0.0, 0.0, 0.0, 0.0, 0.004590665897167057, 0.004300987364182163, 0.0, 0.0, 0.0, 0.0, 0.0, 0.0, 0.0, 0.0, 0.0, 0.0, 0.0, 0.0, 0.0, 0.0, 0.0, 0.0, 0.0, 0.0, 0.0, 0.0, 0.0, 0.0, 0.0, 0.0, 0.0, 0.0, 0.0, 0.0012897703106957185]
---
header: 
  seq: 33
  stamp: 
    secs: 1513422982
    nsecs: 162624200
  frame_id: map
pose: 
  pose: 
    position: 
      x: 13.1221071045
      y: 1.05835699481
      z: 0.0
    orientation: 
      x: 0.0
      y: 0.0
      z: -0.000663507440897
      w: 0.999999779879
  covariance: [0.03570778207225089, 0.005779302561927935, 0.0, 0.0, 0.0, 0.0, 0.005779302561927935, 0.005209297228784271, 0.0, 0.0, 0.0, 0.0, 0.0, 0.0, 0.0, 0.0, 0.0, 0.0, 0.0, 0.0, 0.0, 0.0, 0.0, 0.0, 0.0, 0.0, 0.0, 0.0, 0.0, 0.0, 0.0, 0.0, 0.0, 0.0, 0.0, 0.001443324690252345]
---
header: 
  seq: 34
  stamp: 
    secs: 1513422986
    nsecs: 640633607
  frame_id: map
pose: 
  pose: 
    position: 
      x: 13.585499824
      y: 1.09695048189
      z: 0.0
    orientation: 
      x: 0.0
      y: 0.0
      z: 0.174490681683
      w: 0.98465882518
  covariance: [0.039041259782948146, 0.008432520364287655, 0.0, 0.0, 0.0, 0.0, 0.008432520364287655, 0.006484866573493564, 0.0, 0.0, 0.0, 0.0, 0.0, 0.0, 0.0, 0.0, 0.0, 0.0, 0.0, 0.0, 0.0, 0.0, 0.0, 0.0, 0.0, 0.0, 0.0, 0.0, 0.0, 0.0, 0.0, 0.0, 0.0, 0.0, 0.0, 0.0019029909407681429]
---
header: 
  seq: 35
  stamp: 
    secs: 1513422990
    nsecs: 522059336
  frame_id: map
pose: 
  pose: 
    position: 
      x: 13.9549039248
      y: 1.45372794511
      z: 0.0
    orientation: 
      x: 0.0
      y: 0.0
      z: 0.57169981297
      w: 0.820462871707
  covariance: [0.03473345746496648, 0.009990315121807924, 0.0, 0.0, 0.0, 0.0, 0.009990315121811477, 0.009613889217587435, 0.0, 0.0, 0.0, 0.0, 0.0, 0.0, 0.0, 0.0, 0.0, 0.0, 0.0, 0.0, 0.0, 0.0, 0.0, 0.0, 0.0, 0.0, 0.0, 0.0, 0.0, 0.0, 0.0, 0.0, 0.0, 0.0, 0.0, 0.004045551635822244]
---
header: 
  seq: 36
  stamp: 
    secs: 1513422994
    nsecs: 104641582
  frame_id: map
pose: 
  pose: 
    position: 
      x: 14.1426769178
      y: 1.89172367539
      z: 0.0
    orientation: 
      x: 0.0
      y: 0.0
      z: 0.622097355252
      w: 0.782939895898
  covariance: [0.02393766086964888, 0.007343579771536213, 0.0, 0.0, 0.0, 0.0, 0.0073435797715397655, 0.010450785727606604, 0.0, 0.0, 0.0, 0.0, 0.0, 0.0, 0.0, 0.0, 0.0, 0.0, 0.0, 0.0, 0.0, 0.0, 0.0, 0.0, 0.0, 0.0, 0.0, 0.0, 0.0, 0.0, 0.0, 0.0, 0.0, 0.0, 0.0, 0.004215321437993491]
---
header: 
  seq: 37
  stamp: 
    secs: 1513423001
    nsecs:  70596557
  frame_id: map
pose: 
  pose: 
    position: 
      x: 14.1461843316
      y: 2.30288126942
      z: 0.0
    orientation: 
      x: 0.0
      y: 0.0
      z: 0.714982551011
      w: 0.699142297211
  covariance: [0.0167217711787373, 0.004933916421201445, 0.0, 0.0, 0.0, 0.0, 0.004933916421201445, 0.011674312013226107, 0.0, 0.0, 0.0, 0.0, 0.0, 0.0, 0.0, 0.0, 0.0, 0.0, 0.0, 0.0, 0.0, 0.0, 0.0, 0.0, 0.0, 0.0, 0.0, 0.0, 0.0, 0.0, 0.0, 0.0, 0.0, 0.0, 0.0, 0.005274629958311704]
---
header: 
  seq: 38
  stamp: 
    secs: 1513423004
    nsecs: 255169604
  frame_id: map
pose: 
  pose: 
    position: 
      x: 14.1304223045
      y: 2.69718727225
      z: 0.0
    orientation: 
      x: 0.0
      y: 0.0
      z: 0.714818323777
      w: 0.699310205841
  covariance: [0.015193796226810719, 0.002347257853507756, 0.0, 0.0, 0.0, 0.0, 0.002347257853507756, 0.012853268110383453, 0.0, 0.0, 0.0, 0.0, 0.0, 0.0, 0.0, 0.0, 0.0, 0.0, 0.0, 0.0, 0.0, 0.0, 0.0, 0.0, 0.0, 0.0, 0.0, 0.0, 0.0, 0.0, 0.0, 0.0, 0.0, 0.0, 0.0, 0.00611447247625638]
---
header: 
  seq: 39
  stamp: 
    secs: 1513423010
    nsecs: 126422806
  frame_id: map
pose: 
  pose: 
    position: 
      x: 14.0871648398
      y: 3.11866629787
      z: 0.0
    orientation: 
      x: 0.0
      y: 0.0
      z: 0.720963945033
      w: 0.692972575187
  covariance: [0.015314770157658586, -0.002530887355469247, 0.0, 0.0, 0.0, 0.0, -0.002530887355469247, 0.01501202273118274, 0.0, 0.0, 0.0, 0.0, 0.0, 0.0, 0.0, 0.0, 0.0, 0.0, 0.0, 0.0, 0.0, 0.0, 0.0, 0.0, 0.0, 0.0, 0.0, 0.0, 0.0, 0.0, 0.0, 0.0, 0.0, 0.0, 0.0, 0.007833222736884561]
---
header: 
  seq: 40
  stamp: 
    secs: 1513423013
    nsecs: 311028475
  frame_id: map
pose: 
  pose: 
    position: 
      x: 14.0056856771
      y: 3.55102943624
      z: 0.0
    orientation: 
      x: 0.0
      y: 0.0
      z: 0.733727142412
      w: 0.679444243841
  covariance: [0.010580554730893255, -0.0031211532523087726, 0.0, 0.0, 0.0, 0.0, -0.0031211532523087726, 0.011151497603101745, 0.0, 0.0, 0.0, 0.0, 0.0, 0.0, 0.0, 0.0, 0.0, 0.0, 0.0, 0.0, 0.0, 0.0, 0.0, 0.0, 0.0, 0.0, 0.0, 0.0, 0.0, 0.0, 0.0, 0.0, 0.0, 0.0, 0.0, 0.005858226069244157]
---
header: 
  seq: 41
  stamp: 
    secs: 1513423016
    nsecs: 495130541
  frame_id: map
pose: 
  pose: 
    position: 
      x: 13.935943577
      y: 3.973089095
      z: 0.0
    orientation: 
      x: 0.0
      y: 0.0
      z: 0.740734818653
      w: 0.6717975353
  covariance: [0.007029871099689444, -0.002839191945675168, 0.0, 0.0, 0.0, 0.0, -0.002839191945675168, 0.00927013546432498, 0.0, 0.0, 0.0, 0.0, 0.0, 0.0, 0.0, 0.0, 0.0, 0.0, 0.0, 0.0, 0.0, 0.0, 0.0, 0.0, 0.0, 0.0, 0.0, 0.0, 0.0, 0.0, 0.0, 0.0, 0.0, 0.0, 0.0, 0.0043612266512173875]
---
header: 
  seq: 42
  stamp: 
    secs: 1513423022
    nsecs: 167540440
  frame_id: map
pose: 
  pose: 
    position: 
      x: 13.8595018123
      y: 4.39220974533
      z: 0.0
    orientation: 
      x: 0.0
      y: 0.0
      z: 0.747355696091
      w: 0.664424159345
  covariance: [0.0056155325595455, -0.0027588871816064398, 0.0, 0.0, 0.0, 0.0, -0.0027588871816064398, 0.008010933894741612, 0.0, 0.0, 0.0, 0.0, 0.0, 0.0, 0.0, 0.0, 0.0, 0.0, 0.0, 0.0, 0.0, 0.0, 0.0, 0.0, 0.0, 0.0, 0.0, 0.0, 0.0, 0.0, 0.0, 0.0, 0.0, 0.0, 0.0, 0.003292929729752458]
---
header: 
  seq: 43
  stamp: 
    secs: 1513423025
    nsecs: 451234218
  frame_id: map
pose: 
  pose: 
    position: 
      x: 13.794722646
      y: 4.8024004843
      z: 0.0
    orientation: 
      x: 0.0
      y: 0.0
      z: 0.751202100453
      w: 0.660072272008
  covariance: [0.004848473564749156, -0.0030786977004879645, 0.0, 0.0, 0.0, 0.0, -0.0030786977004879645, 0.007948440195555406, 0.0, 0.0, 0.0, 0.0, 0.0, 0.0, 0.0, 0.0, 0.0, 0.0, 0.0, 0.0, 0.0, 0.0, 0.0, 0.0, 0.0, 0.0, 0.0, 0.0, 0.0, 0.0, 0.0, 0.0, 0.0, 0.0, 0.0, 0.002726401430167156]
---
header: 
  seq: 44
  stamp: 
    secs: 1513423028
    nsecs: 735253195
  frame_id: map
pose: 
  pose: 
    position: 
      x: 13.7483558064
      y: 5.22483323839
      z: 0.0
    orientation: 
      x: 0.0
      y: 0.0
      z: 0.72189430393
      w: 0.692003333773
  covariance: [0.004566181119542989, -0.0014755059442279617, 0.0, 0.0, 0.0, 0.0, -0.0014755059442279617, 0.005311024762519878, 0.0, 0.0, 0.0, 0.0, 0.0, 0.0, 0.0, 0.0, 0.0, 0.0, 0.0, 0.0, 0.0, 0.0, 0.0, 0.0, 0.0, 0.0, 0.0, 0.0, 0.0, 0.0, 0.0, 0.0, 0.0, 0.0, 0.0, 0.0023968107645693172]
---
header: 
  seq: 45
  stamp: 
    secs: 1513423037
    nsecs: 194129851
  frame_id: map
pose: 
  pose: 
    position: 
      x: 13.7301880246
      y: 5.64162892152
      z: 0.0
    orientation: 
      x: 0.0
      y: 0.0
      z: 0.723222548277
      w: 0.690615048825
  covariance: [0.005473608031365984, -0.0017723652173629034, 0.0, 0.0, 0.0, 0.0, -0.0017723652173629034, 0.004444270631587699, 0.0, 0.0, 0.0, 0.0, 0.0, 0.0, 0.0, 0.0, 0.0, 0.0, 0.0, 0.0, 0.0, 0.0, 0.0, 0.0, 0.0, 0.0, 0.0, 0.0, 0.0, 0.0, 0.0, 0.0, 0.0, 0.0, 0.0, 0.0026835196156842567]
---
header: 
  seq: 46
  stamp: 
    secs: 1513423040
    nsecs: 577857739
  frame_id: map
pose: 
  pose: 
    position: 
      x: 13.6910082694
      y: 6.07049212829
      z: 0.0
    orientation: 
      x: 0.0
      y: 0.0
      z: 0.725854709103
      w: 0.687848051006
  covariance: [0.004755025371366628, -0.0010777053136905579, 0.0, 0.0, 0.0, 0.0, -0.0010777053136905579, 0.0037988840825846637, 0.0, 0.0, 0.0, 0.0, 0.0, 0.0, 0.0, 0.0, 0.0, 0.0, 0.0, 0.0, 0.0, 0.0, 0.0, 0.0, 0.0, 0.0, 0.0, 0.0, 0.0, 0.0, 0.0, 0.0, 0.0, 0.0, 0.0, 0.0023691632516107896]
---
header: 
  seq: 47
  stamp: 
    secs: 1513423043
    nsecs: 961076270
  frame_id: map
pose: 
  pose: 
    position: 
      x: 13.6522818487
      y: 6.49766857797
      z: 0.0
    orientation: 
      x: 0.0
      y: 0.0
      z: 0.729476634655
      w: 0.684005730599
  covariance: [0.0035646110244442752, -0.00032236594016410436, 0.0, 0.0, 0.0, 0.0, -0.00032236594016410436, 0.0030002208832797805, 0.0, 0.0, 0.0, 0.0, 0.0, 0.0, 0.0, 0.0, 0.0, 0.0, 0.0, 0.0, 0.0, 0.0, 0.0, 0.0, 0.0, 0.0, 0.0, 0.0, 0.0, 0.0, 0.0, 0.0, 0.0, 0.0, 0.0, 0.002001032224739578]
---
header: 
  seq: 48
  stamp: 
    secs: 1513423047
    nsecs: 344177979
  frame_id: map
pose: 
  pose: 
    position: 
      x: 13.6234306665
      y: 6.93010670922
      z: 0.0
    orientation: 
      x: 0.0
      y: 0.0
      z: 0.728666652791
      w: 0.68486853418
  covariance: [0.0033908891165594923, -0.000266584340153031, 0.0, 0.0, 0.0, 0.0, -0.000266584340153031, 0.0031933026462596104, 0.0, 0.0, 0.0, 0.0, 0.0, 0.0, 0.0, 0.0, 0.0, 0.0, 0.0, 0.0, 0.0, 0.0, 0.0, 0.0, 0.0, 0.0, 0.0, 0.0, 0.0, 0.0, 0.0, 0.0, 0.0, 0.0, 0.0, 0.0015124356048948266]
---
header: 
  seq: 49
  stamp: 
    secs: 1513423050
    nsecs: 727738467
  frame_id: map
pose: 
  pose: 
    position: 
      x: 13.594382743
      y: 7.35859229053
      z: 0.0
    orientation: 
      x: 0.0
      y: 0.0
      z: 0.728486767374
      w: 0.685059873122
  covariance: [0.003895515442195574, 2.19103952616706e-05, 0.0, 0.0, 0.0, 0.0, 2.1910395247459746e-05, 0.003245319963113502, 0.0, 0.0, 0.0, 0.0, 0.0, 0.0, 0.0, 0.0, 0.0, 0.0, 0.0, 0.0, 0.0, 0.0, 0.0, 0.0, 0.0, 0.0, 0.0, 0.0, 0.0, 0.0, 0.0, 0.0, 0.0, 0.0, 0.0, 0.0014053988988190211]
---
header: 
  seq: 50
  stamp: 
    secs: 1513423054
    nsecs: 111435069
  frame_id: map
pose: 
  pose: 
    position: 
      x: 13.5673740332
      y: 7.79322880876
      z: 0.0
    orientation: 
      x: 0.0
      y: 0.0
      z: 0.729706108066
      w: 0.683760920097
  covariance: [0.0040647460995160145, 0.0007936869276363723, 0.0, 0.0, 0.0, 0.0, 0.0007936869276221614, 0.003858326254984945, 0.0, 0.0, 0.0, 0.0, 0.0, 0.0, 0.0, 0.0, 0.0, 0.0, 0.0, 0.0, 0.0, 0.0, 0.0, 0.0, 0.0, 0.0, 0.0, 0.0, 0.0, 0.0, 0.0, 0.0, 0.0, 0.0, 0.0, 0.001463260867844088]
---
header: 
  seq: 51
  stamp: 
    secs: 1513423058
    nsecs: 888017439
  frame_id: map
pose: 
  pose: 
    position: 
      x: 13.5345035581
      y: 8.21718101295
      z: 0.0
    orientation: 
      x: 0.0
      y: 0.0
      z: 0.730328412037
      w: 0.68309619423
  covariance: [0.004247873940613545, 0.0009791362511748503, 0.0, 0.0, 0.0, 0.0, 0.0009791362511748503, 0.0038384944715375013, 0.0, 0.0, 0.0, 0.0, 0.0, 0.0, 0.0, 0.0, 0.0, 0.0, 0.0, 0.0, 0.0, 0.0, 0.0, 0.0, 0.0, 0.0, 0.0, 0.0, 0.0, 0.0, 0.0, 0.0, 0.0, 0.0, 0.0, 0.0015658368056043468]
---
header: 
  seq: 52
  stamp: 
    secs: 1513423062
    nsecs: 272099245
  frame_id: map
pose: 
  pose: 
    position: 
      x: 13.4948211436
      y: 8.64518801625
      z: 0.0
    orientation: 
      x: 0.0
      y: 0.0
      z: 0.733564713744
      w: 0.679619607391
  covariance: [0.004005611328722125, 0.0005401386382146711, 0.0, 0.0, 0.0, 0.0, 0.0005401386382146711, 0.0028781849263168624, 0.0, 0.0, 0.0, 0.0, 0.0, 0.0, 0.0, 0.0, 0.0, 0.0, 0.0, 0.0, 0.0, 0.0, 0.0, 0.0, 0.0, 0.0, 0.0, 0.0, 0.0, 0.0, 0.0, 0.0, 0.0, 0.0, 0.0, 0.0011959744756955698]
---
header: 
  seq: 53
  stamp: 
    secs: 1513423065
    nsecs: 556043645
  frame_id: map
pose: 
  pose: 
    position: 
      x: 13.4579314406
      y: 9.05761555664
      z: 0.0
    orientation: 
      x: 0.0
      y: 0.0
      z: 0.733835343055
      w: 0.679327380049
  covariance: [0.003479392104964063, 0.0003752918506449987, 0.0, 0.0, 0.0, 0.0, 0.0003752918506449987, 0.00290923640454821, 0.0, 0.0, 0.0, 0.0, 0.0, 0.0, 0.0, 0.0, 0.0, 0.0, 0.0, 0.0, 0.0, 0.0, 0.0, 0.0, 0.0, 0.0, 0.0, 0.0, 0.0, 0.0, 0.0, 0.0, 0.0, 0.0, 0.0, 0.00122786649057408]
---
header: 
  seq: 54
  stamp: 
    secs: 1513423075
    nsecs: 109453439
  frame_id: map
pose: 
  pose: 
    position: 
      x: 13.4221958252
      y: 9.47864281965
      z: 0.0
    orientation: 
      x: 0.0
      y: 0.0
      z: 0.734521807375
      w: 0.678585082721
  covariance: [0.002985323694986164, 0.00014183703827086447, 0.0, 0.0, 0.0, 0.0, 0.00014183703827086447, 0.0028072853436782452, 0.0, 0.0, 0.0, 0.0, 0.0, 0.0, 0.0, 0.0, 0.0, 0.0, 0.0, 0.0, 0.0, 0.0, 0.0, 0.0, 0.0, 0.0, 0.0, 0.0, 0.0, 0.0, 0.0, 0.0, 0.0, 0.0, 0.0, 0.0011936630836784181]
---
header: 
  seq: 55
  stamp: 
    secs: 1513423078
    nsecs: 492888195
  frame_id: map
pose: 
  pose: 
    position: 
      x: 13.3799457575
      y: 9.90502352316
      z: 0.0
    orientation: 
      x: 0.0
      y: 0.0
      z: 0.735802665098
      w: 0.677196011532
  covariance: [0.0027792170121188065, -5.985186834323031e-05, 0.0, 0.0, 0.0, 0.0, -5.985186834323031e-05, 0.002924212232926493, 0.0, 0.0, 0.0, 0.0, 0.0, 0.0, 0.0, 0.0, 0.0, 0.0, 0.0, 0.0, 0.0, 0.0, 0.0, 0.0, 0.0, 0.0, 0.0, 0.0, 0.0, 0.0, 0.0, 0.0, 0.0, 0.0, 0.0, 0.0013711423302966144]
---
header: 
  seq: 56
  stamp: 
    secs: 1513423081
    nsecs: 777034045
  frame_id: map
pose: 
  pose: 
    position: 
      x: 13.3353340608
      y: 10.3105701935
      z: 0.0
    orientation: 
      x: 0.0
      y: 0.0
      z: 0.740263221779
      w: 0.672317159145
  covariance: [0.00274966037966351, -0.00046118862070443356, 0.0, 0.0, 0.0, 0.0, -0.00046118862070443356, 0.0025114627896414277, 0.0, 0.0, 0.0, 0.0, 0.0, 0.0, 0.0, 0.0, 0.0, 0.0, 0.0, 0.0, 0.0, 0.0, 0.0, 0.0, 0.0, 0.0, 0.0, 0.0, 0.0, 0.0, 0.0, 0.0, 0.0, 0.0, 0.0, 0.00145826495281852]
---
header: 
  seq: 57
  stamp: 
    secs: 1513423089
    nsecs: 837597463
  frame_id: map
pose: 
  pose: 
    position: 
      x: 13.2716680262
      y: 10.7377997795
      z: 0.0
    orientation: 
      x: 0.0
      y: 0.0
      z: 0.746778587853
      w: 0.665072733409
  covariance: [0.0039822168777163824, -0.00024328144107244043, 0.0, 0.0, 0.0, 0.0, -0.00024328144107244043, 0.0016949983839111837, 0.0, 0.0, 0.0, 0.0, 0.0, 0.0, 0.0, 0.0, 0.0, 0.0, 0.0, 0.0, 0.0, 0.0, 0.0, 0.0, 0.0, 0.0, 0.0, 0.0, 0.0, 0.0, 0.0, 0.0, 0.0, 0.0, 0.0, 0.0016706078191281175]
---
header: 
  seq: 58
  stamp: 
    secs: 1513423093
    nsecs: 220925340
  frame_id: map
pose: 
  pose: 
    position: 
      x: 13.2084572519
      y: 11.1659729546
      z: 0.0
    orientation: 
      x: 0.0
      y: 0.0
      z: 0.748659254484
      w: 0.662954991441
  covariance: [0.0050229541346311635, 0.0003221924069691795, 0.0, 0.0, 0.0, 0.0, 0.0003221924069691795, 0.0011708077294372288, 0.0, 0.0, 0.0, 0.0, 0.0, 0.0, 0.0, 0.0, 0.0, 0.0, 0.0, 0.0, 0.0, 0.0, 0.0, 0.0, 0.0, 0.0, 0.0, 0.0, 0.0, 0.0, 0.0, 0.0, 0.0, 0.0, 0.0, 0.0015737963538036736]
---
header: 
  seq: 59
  stamp: 
    secs: 1513423096
    nsecs: 604377302
  frame_id: map
pose: 
  pose: 
    position: 
      x: 13.1344867004
      y: 11.5888048451
      z: 0.0
    orientation: 
      x: 0.0
      y: 0.0
      z: 0.750805231969
      w: 0.660523658658
  covariance: [0.004309524136147047, 0.0007026744236213744, 0.0, 0.0, 0.0, 0.0, 0.0007026744235929527, 0.000891151076729102, 0.0, 0.0, 0.0, 0.0, 0.0, 0.0, 0.0, 0.0, 0.0, 0.0, 0.0, 0.0, 0.0, 0.0, 0.0, 0.0, 0.0, 0.0, 0.0, 0.0, 0.0, 0.0, 0.0, 0.0, 0.0, 0.0, 0.0, 0.0010551761415659299]
---
header: 
  seq: 60
  stamp: 
    secs: 1513423099
    nsecs: 988219194
  frame_id: map
pose: 
  pose: 
    position: 
      x: 13.075117939
      y: 12.0109351764
      z: 0.0
    orientation: 
      x: 0.0
      y: 0.0
      z: 0.751487933425
      w: 0.659746834715
  covariance: [0.004897672526340102, 0.0007024339908241473, 0.0, 0.0, 0.0, 0.0, 0.000702433990852569, 0.0010853600433620159, 0.0, 0.0, 0.0, 0.0, 0.0, 0.0, 0.0, 0.0, 0.0, 0.0, 0.0, 0.0, 0.0, 0.0, 0.0, 0.0, 0.0, 0.0, 0.0, 0.0, 0.0, 0.0, 0.0, 0.0, 0.0, 0.0, 0.0, 0.0011578890347049068]
---
header: 
  seq: 61
  stamp: 
    secs: 1513423103
    nsecs: 371788044
  frame_id: map
pose: 
  pose: 
    position: 
      x: 13.0207608292
      y: 12.4370991194
      z: 0.0
    orientation: 
      x: 0.0
      y: 0.0
      z: 0.751861501228
      w: 0.659321077299
  covariance: [0.005066669446875949, 0.0006501161436176517, 0.0, 0.0, 0.0, 0.0, 0.0006501161436460734, 0.0012681391103512851, 0.0, 0.0, 0.0, 0.0, 0.0, 0.0, 0.0, 0.0, 0.0, 0.0, 0.0, 0.0, 0.0, 0.0, 0.0, 0.0, 0.0, 0.0, 0.0, 0.0, 0.0, 0.0, 0.0, 0.0, 0.0, 0.0, 0.0, 0.0012142871976506793]
---
header: 
  seq: 62
  stamp: 
    secs: 1513423106
    nsecs: 854496532
  frame_id: map
pose: 
  pose: 
    position: 
      x: 12.9917189041
      y: 12.8657007642
      z: 0.0
    orientation: 
      x: 0.0
      y: 0.0
      z: 0.698912231039
      w: 0.71520744774
  covariance: [0.004189715695048335, 0.0004950844479765237, 0.0, 0.0, 0.0, 0.0, 0.0004950844479765237, 0.001382683444006716, 0.0, 0.0, 0.0, 0.0, 0.0, 0.0, 0.0, 0.0, 0.0, 0.0, 0.0, 0.0, 0.0, 0.0, 0.0, 0.0, 0.0, 0.0, 0.0, 0.0, 0.0, 0.0, 0.0, 0.0, 0.0, 0.0, 0.0, 0.0011664256497843158]
---
header: 
  seq: 63
  stamp: 
    secs: 1513423110
    nsecs: 237792387
  frame_id: map
pose: 
  pose: 
    position: 
      x: 13.0067859563
      y: 13.2956033021
      z: 0.0
    orientation: 
      x: 0.0
      y: 0.0
      z: 0.698140260927
      w: 0.715961015749
  covariance: [0.004780665645938598, 0.0006240885892339065, 0.0, 0.0, 0.0, 0.0, 0.00062408858929075, 0.0015090008136553479, 0.0, 0.0, 0.0, 0.0, 0.0, 0.0, 0.0, 0.0, 0.0, 0.0, 0.0, 0.0, 0.0, 0.0, 0.0, 0.0, 0.0, 0.0, 0.0, 0.0, 0.0, 0.0, 0.0, 0.0, 0.0, 0.0, 0.0, 0.001305535115914546]
---
header: 
  seq: 64
  stamp: 
    secs: 1513423114
    nsecs: 516225773
  frame_id: map
pose: 
  pose: 
    position: 
      x: 13.0088570112
      y: 13.7213906186
      z: 0.0
    orientation: 
      x: 0.0
      y: 0.0
      z: 0.699435736854
      w: 0.714695494607
  covariance: [0.004302902502843153, 0.0003569824033036184, 0.0, 0.0, 0.0, 0.0, 0.0003569824033036184, 0.0016243510819151652, 0.0, 0.0, 0.0, 0.0, 0.0, 0.0, 0.0, 0.0, 0.0, 0.0, 0.0, 0.0, 0.0, 0.0, 0.0, 0.0, 0.0, 0.0, 0.0, 0.0, 0.0, 0.0, 0.0, 0.0, 0.0, 0.0, 0.0, 0.0014444794241230453]
---
header: 
  seq: 65
  stamp: 
    secs: 1513423119
    nsecs: 690273943
  frame_id: map
pose: 
  pose: 
    position: 
      x: 12.8874162443
      y: 14.1167150134
      z: 0.0
    orientation: 
      x: 0.0
      y: 0.0
      z: 0.867150446852
      w: 0.498046285524
  covariance: [0.004028902142152901, 0.00028611159487468285, 0.0, 0.0, 0.0, 0.0, 0.00028611159493152627, 0.0017841443257395895, 0.0, 0.0, 0.0, 0.0, 0.0, 0.0, 0.0, 0.0, 0.0, 0.0, 0.0, 0.0, 0.0, 0.0, 0.0, 0.0, 0.0, 0.0, 0.0, 0.0, 0.0, 0.0, 0.0, 0.0, 0.0, 0.0, 0.0, 0.0018967710915544942]
---
header: 
  seq: 66
  stamp: 
    secs: 1513423123
    nsecs:  74009514
  frame_id: map
pose: 
  pose: 
    position: 
      x: 12.6509384513
      y: 14.4753359995
      z: 0.0
    orientation: 
      x: 0.0
      y: 0.0
      z: 0.919206333481
      w: 0.393776226413
  covariance: [0.0049745982555009505, 0.00012794644874247751, 0.0, 0.0, 0.0, 0.0, 0.00012794644877089922, 0.0017922981262472604, 0.0, 0.0, 0.0, 0.0, 0.0, 0.0, 0.0, 0.0, 0.0, 0.0, 0.0, 0.0, 0.0, 0.0, 0.0, 0.0, 0.0, 0.0, 0.0, 0.0, 0.0, 0.0, 0.0, 0.0, 0.0, 0.0, 0.0, 0.002339591625143884]
---
header: 
  seq: 67
  stamp: 
    secs: 1513423127
    nsecs: 153932314
  frame_id: map
pose: 
  pose: 
    position: 
      x: 12.2035239552
      y: 14.7152384851
      z: 0.0
    orientation: 
      x: 0.0
      y: 0.0
      z: 0.998630193295
      w: 0.0523233890369
  covariance: [0.008337604506635898, 0.0003888646005805185, 0.0, 0.0, 0.0, 0.0, 0.0003888646005520968, 0.002154977187501572, 0.0, 0.0, 0.0, 0.0, 0.0, 0.0, 0.0, 0.0, 0.0, 0.0, 0.0, 0.0, 0.0, 0.0, 0.0, 0.0, 0.0, 0.0, 0.0, 0.0, 0.0, 0.0, 0.0, 0.0, 0.0, 0.0, 0.0, 0.00418399171515717]
---
header: 
  seq: 68
  stamp: 
    secs: 1513423130
    nsecs: 636601841
  frame_id: map
pose: 
  pose: 
    position: 
      x: 11.7665676725
      y: 14.7144355847
      z: 0.0
    orientation: 
      x: 0.0
      y: 0.0
      z: -0.999574315738
      w: 0.0291751146692
  covariance: [0.009175715760534331, 0.0014232036266719206, 0.0, 0.0, 0.0, 0.0, 0.0014232036266719206, 0.003101486579197399, 0.0, 0.0, 0.0, 0.0, 0.0, 0.0, 0.0, 0.0, 0.0, 0.0, 0.0, 0.0, 0.0, 0.0, 0.0, 0.0, 0.0, 0.0, 0.0, 0.0, 0.0, 0.0, 0.0, 0.0, 0.0, 0.0, 0.0, 0.003537909282411456]
---
header: 
  seq: 69
  stamp: 
    secs: 1513423134
    nsecs:  19958682
  frame_id: map
pose: 
  pose: 
    position: 
      x: 11.3473936489
      y: 14.6881893058
      z: 0.0
    orientation: 
      x: 0.0
      y: 0.0
      z: -0.99959479455
      w: 0.0284648328285
  covariance: [0.00780392157685128, 0.0015536182065716275, 0.0, 0.0, 0.0, 0.0, 0.001553618206514784, 0.0044458414207610986, 0.0, 0.0, 0.0, 0.0, 0.0, 0.0, 0.0, 0.0, 0.0, 0.0, 0.0, 0.0, 0.0, 0.0, 0.0, 0.0, 0.0, 0.0, 0.0, 0.0, 0.0, 0.0, 0.0, 0.0, 0.0, 0.0, 0.0, 0.003327037153683111]
---
header: 
  seq: 70
  stamp: 
    secs: 1513423137
    nsecs: 403741957
  frame_id: map
pose: 
  pose: 
    position: 
      x: 10.9190417933
      y: 14.6507619559
      z: 0.0
    orientation: 
      x: 0.0
      y: 0.0
      z: -0.999462644018
      w: 0.0327783955234
  covariance: [0.00819896167210743, 0.0012497533184046006, 0.0, 0.0, 0.0, 0.0, 0.0012497533184046006, 0.004363437467560516, 0.0, 0.0, 0.0, 0.0, 0.0, 0.0, 0.0, 0.0, 0.0, 0.0, 0.0, 0.0, 0.0, 0.0, 0.0, 0.0, 0.0, 0.0, 0.0, 0.0, 0.0, 0.0, 0.0, 0.0, 0.0, 0.0, 0.0, 0.0026156592191769034]
---
header: 
  seq: 71
  stamp: 
    secs: 1513423140
    nsecs: 786837708
  frame_id: map
pose: 
  pose: 
    position: 
      x: 10.5013826784
      y: 14.6055634952
      z: 0.0
    orientation: 
      x: 0.0
      y: 0.0
      z: -0.999238556056
      w: 0.0390167667985
  covariance: [0.009299747274567949, 0.0017084218640945892, 0.0, 0.0, 0.0, 0.0, 0.0017084218640945892, 0.004650446698775568, 0.0, 0.0, 0.0, 0.0, 0.0, 0.0, 0.0, 0.0, 0.0, 0.0, 0.0, 0.0, 0.0, 0.0, 0.0, 0.0, 0.0, 0.0, 0.0, 0.0, 0.0, 0.0, 0.0, 0.0, 0.0, 0.0, 0.0, 0.002250356431145869]
---
header: 
  seq: 72
  stamp: 
    secs: 1513423147
    nsecs: 155832496
  frame_id: map
pose: 
  pose: 
    position: 
      x: 10.0641369948
      y: 14.5891702612
      z: 0.0
    orientation: 
      x: 0.0
      y: 0.0
      z: 0.999414641201
      w: 0.0342107432529
  covariance: [0.008660732008607397, 0.0023230881389508795, 0.0, 0.0, 0.0, 0.0, 0.0023230881389508795, 0.005406772633335777, 0.0, 0.0, 0.0, 0.0, 0.0, 0.0, 0.0, 0.0, 0.0, 0.0, 0.0, 0.0, 0.0, 0.0, 0.0, 0.0, 0.0, 0.0, 0.0, 0.0, 0.0, 0.0, 0.0, 0.0, 0.0, 0.0, 0.0, 0.002151184747389692]
---
header: 
  seq: 73
  stamp: 
    secs: 1513423150
    nsecs: 737953411
  frame_id: map
pose: 
  pose: 
    position: 
      x: 9.61002454077
      y: 14.6044036041
      z: 0.0
    orientation: 
      x: 0.0
      y: 0.0
      z: 0.999514922862
      w: 0.0311435222291
  covariance: [0.007927254747343682, 0.0023989644781181596, 0.0, 0.0, 0.0, 0.0, 0.0023989644781181596, 0.005731160779646416, 0.0, 0.0, 0.0, 0.0, 0.0, 0.0, 0.0, 0.0, 0.0, 0.0, 0.0, 0.0, 0.0, 0.0, 0.0, 0.0, 0.0, 0.0, 0.0, 0.0, 0.0, 0.0, 0.0, 0.0, 0.0, 0.0, 0.0, 0.0021112582036447087]
---
header: 
  seq: 74
  stamp: 
    secs: 1513423154
    nsecs: 320587168
  frame_id: map
pose: 
  pose: 
    position: 
      x: 9.15512353976
      y: 14.6195390801
      z: 0.0
    orientation: 
      x: 0.0
      y: 0.0
      z: 0.999596779806
      w: 0.0283950312753
  covariance: [0.007370474270175009, 0.0020622651872201914, 0.0, 0.0, 0.0, 0.0, 0.0020622651872201914, 0.007160938628288704, 0.0, 0.0, 0.0, 0.0, 0.0, 0.0, 0.0, 0.0, 0.0, 0.0, 0.0, 0.0, 0.0, 0.0, 0.0, 0.0, 0.0, 0.0, 0.0, 0.0, 0.0, 0.0, 0.0, 0.0, 0.0, 0.0, 0.0, 0.002173941508518483]
---
header: 
  seq: 75
  stamp: 
    secs: 1513423159
    nsecs: 893276055
  frame_id: map
pose: 
  pose: 
    position: 
      x: 8.69846602447
      y: 14.6195202698
      z: 0.0
    orientation: 
      x: 0.0
      y: 0.0
      z: 0.999694765549
      w: 0.0247057833906
  covariance: [0.007339141678812666, 0.003333307720581047, 0.0, 0.0, 0.0, 0.0, 0.003333307720581047, 0.009250944777136283, 0.0, 0.0, 0.0, 0.0, 0.0, 0.0, 0.0, 0.0, 0.0, 0.0, 0.0, 0.0, 0.0, 0.0, 0.0, 0.0, 0.0, 0.0, 0.0, 0.0, 0.0, 0.0, 0.0, 0.0, 0.0, 0.0, 0.0, 0.002174818485480943]
---
header: 
  seq: 76
  stamp: 
    secs: 1513423163
    nsecs: 475582625
  frame_id: map
pose: 
  pose: 
    position: 
      x: 8.2441179559
      y: 14.6158212355
      z: 0.0
    orientation: 
      x: 0.0
      y: 0.0
      z: 0.999805945627
      w: 0.0196995200016
  covariance: [0.007626349692856138, 0.003767805573446026, 0.0, 0.0, 0.0, 0.0, 0.003767805573446026, 0.009524679389556923, 0.0, 0.0, 0.0, 0.0, 0.0, 0.0, 0.0, 0.0, 0.0, 0.0, 0.0, 0.0, 0.0, 0.0, 0.0, 0.0, 0.0, 0.0, 0.0, 0.0, 0.0, 0.0, 0.0, 0.0, 0.0, 0.0, 0.0, 0.0021515405217161377]
---
header: 
  seq: 77
  stamp: 
    secs: 1513423167
    nsecs:  58000553
  frame_id: map
pose: 
  pose: 
    position: 
      x: 7.77067312867
      y: 14.5911882329
      z: 0.0
    orientation: 
      x: 0.0
      y: 0.0
      z: 0.999946109183
      w: 0.0103816535034
  covariance: [0.008010513443686307, 0.0031811570851374427, 0.0, 0.0, 0.0, 0.0, 0.003181157085123232, 0.00918126704664246, 0.0, 0.0, 0.0, 0.0, 0.0, 0.0, 0.0, 0.0, 0.0, 0.0, 0.0, 0.0, 0.0, 0.0, 0.0, 0.0, 0.0, 0.0, 0.0, 0.0, 0.0, 0.0, 0.0, 0.0, 0.0, 0.0, 0.0, 0.0020426317989792916]
---
header: 
  seq: 78
  stamp: 
    secs: 1513423170
    nsecs: 640422187
  frame_id: map
pose: 
  pose: 
    position: 
      x: 7.30876653079
      y: 14.5602320569
      z: 0.0
    orientation: 
      x: 0.0
      y: 0.0
      z: 0.999994200691
      w: 0.00340566930155
  covariance: [0.008184976150822365, 0.0015426047047384372, 0.0, 0.0, 0.0, 0.0, 0.001542604704752648, 0.007200265674640605, 0.0, 0.0, 0.0, 0.0, 0.0, 0.0, 0.0, 0.0, 0.0, 0.0, 0.0, 0.0, 0.0, 0.0, 0.0, 0.0, 0.0, 0.0, 0.0, 0.0, 0.0, 0.0, 0.0, 0.0, 0.0, 0.0, 0.0, 0.0018074884419572296]
---
header: 
  seq: 79
  stamp: 
    secs: 1513423174
    nsecs: 223096164
  frame_id: map
pose: 
  pose: 
    position: 
      x: 6.85394798357
      y: 14.5330210888
      z: 0.0
    orientation: 
      x: 0.0
      y: 0.0
      z: -0.999996839624
      w: 0.00251410850486
  covariance: [0.009832419732433095, 0.0016227523726684012, 0.0, 0.0, 0.0, 0.0, 0.0016227523726541904, 0.006170635754330078, 0.0, 0.0, 0.0, 0.0, 0.0, 0.0, 0.0, 0.0, 0.0, 0.0, 0.0, 0.0, 0.0, 0.0, 0.0, 0.0, 0.0, 0.0, 0.0, 0.0, 0.0, 0.0, 0.0, 0.0, 0.0, 0.0, 0.0, 0.0017442982706743573]
---
header: 
  seq: 80
  stamp: 
    secs: 1513423177
    nsecs: 805449013
  frame_id: map
pose: 
  pose: 
    position: 
      x: 6.39932188108
      y: 14.5101941915
      z: 0.0
    orientation: 
      x: 0.0
      y: 0.0
      z: -0.999982941128
      w: 0.00584101473341
  covariance: [0.009966185274556949, 0.0010801497073487099, 0.0, 0.0, 0.0, 0.0, 0.0010801497073487099, 0.004881248246050518, 0.0, 0.0, 0.0, 0.0, 0.0, 0.0, 0.0, 0.0, 0.0, 0.0, 0.0, 0.0, 0.0, 0.0, 0.0, 0.0, 0.0, 0.0, 0.0, 0.0, 0.0, 0.0, 0.0, 0.0, 0.0, 0.0, 0.0, 0.0019303441511628059]
---
header: 
  seq: 81
  stamp: 
    secs: 1513423181
    nsecs: 388203986
  frame_id: map
pose: 
  pose: 
    position: 
      x: 5.94189204517
      y: 14.4899266426
      z: 0.0
    orientation: 
      x: 0.0
      y: 0.0
      z: -0.999971435541
      w: 0.00755831344219
  covariance: [0.010100172112068151, 0.0007671775512534396, 0.0, 0.0, 0.0, 0.0, 0.0007671775512534396, 0.00412935655219826, 0.0, 0.0, 0.0, 0.0, 0.0, 0.0, 0.0, 0.0, 0.0, 0.0, 0.0, 0.0, 0.0, 0.0, 0.0, 0.0, 0.0, 0.0, 0.0, 0.0, 0.0, 0.0, 0.0, 0.0, 0.0, 0.0, 0.0, 0.001858132954445832]
---
header: 
  seq: 82
  stamp: 
    secs: 1513423184
    nsecs: 971214568
  frame_id: map
pose: 
  pose: 
    position: 
      x: 5.48700219251
      y: 14.4748269391
      z: 0.0
    orientation: 
      x: 0.0
      y: 0.0
      z: -0.999948948957
      w: 0.0101044286951
  covariance: [0.010619602707244269, -5.680993562862113e-05, 0.0, 0.0, 0.0, 0.0, -5.680993562862113e-05, 0.003904233510723998, 0.0, 0.0, 0.0, 0.0, 0.0, 0.0, 0.0, 0.0, 0.0, 0.0, 0.0, 0.0, 0.0, 0.0, 0.0, 0.0, 0.0, 0.0, 0.0, 0.0, 0.0, 0.0, 0.0, 0.0, 0.0, 0.0, 0.0, 0.0021283086589585125]
---
header: 
  seq: 83
  stamp: 
    secs: 1513423190
    nsecs: 842603608
  frame_id: map
pose: 
  pose: 
    position: 
      x: 5.03302088698
      y: 14.4534914525
      z: 0.0
    orientation: 
      x: 0.0
      y: 0.0
      z: -0.999893309769
      w: 0.0146071585197
  covariance: [0.010594139898863375, -5.76116141530747e-05, 0.0, 0.0, 0.0, 0.0, -5.76116141530747e-05, 0.004664139864303252, 0.0, 0.0, 0.0, 0.0, 0.0, 0.0, 0.0, 0.0, 0.0, 0.0, 0.0, 0.0, 0.0, 0.0, 0.0, 0.0, 0.0, 0.0, 0.0, 0.0, 0.0, 0.0, 0.0, 0.0, 0.0, 0.0, 0.0, 0.002237538300549871]
---
header: 
  seq: 84
  stamp: 
    secs: 1513423194
    nsecs: 425019711
  frame_id: map
pose: 
  pose: 
    position: 
      x: 4.58156886709
      y: 14.4218171684
      z: 0.0
    orientation: 
      x: 0.0
      y: 0.0
      z: -0.999813041577
      w: 0.0193360257907
  covariance: [0.010315338871848212, 0.00034325171448301717, 0.0, 0.0, 0.0, 0.0, 0.00034325171448301717, 0.00539514262985108, 0.0, 0.0, 0.0, 0.0, 0.0, 0.0, 0.0, 0.0, 0.0, 0.0, 0.0, 0.0, 0.0, 0.0, 0.0, 0.0, 0.0, 0.0, 0.0, 0.0, 0.0, 0.0, 0.0, 0.0, 0.0, 0.0, 0.0, 0.0020892359318141246]
---
header: 
  seq: 85
  stamp: 
    secs: 1513423198
    nsecs:   7683890
  frame_id: map
pose: 
  pose: 
    position: 
      x: 4.13036834095
      y: 14.3867147417
      z: 0.0
    orientation: 
      x: 0.0
      y: 0.0
      z: -0.9997263909
      w: 0.0233910952705
  covariance: [0.00974442700674416, -0.00010536478014699924, 0.0, 0.0, 0.0, 0.0, -0.00010536478014699924, 0.004563295557289848, 0.0, 0.0, 0.0, 0.0, 0.0, 0.0, 0.0, 0.0, 0.0, 0.0, 0.0, 0.0, 0.0, 0.0, 0.0, 0.0, 0.0, 0.0, 0.0, 0.0, 0.0, 0.0, 0.0, 0.0, 0.0, 0.0, 0.0, 0.0020497915756896865]
---
header: 
  seq: 86
  stamp: 
    secs: 1513423201
    nsecs: 590318371
  frame_id: map
pose: 
  pose: 
    position: 
      x: 3.67382249182
      y: 14.3517351515
      z: 0.0
    orientation: 
      x: 0.0
      y: 0.0
      z: -0.999646242282
      w: 0.0265968097975
  covariance: [0.008224865522098668, 0.000643191498831186, 0.0, 0.0, 0.0, 0.0, 0.000643191498831186, 0.004873786505669386, 0.0, 0.0, 0.0, 0.0, 0.0, 0.0, 0.0, 0.0, 0.0, 0.0, 0.0, 0.0, 0.0, 0.0, 0.0, 0.0, 0.0, 0.0, 0.0, 0.0, 0.0, 0.0, 0.0, 0.0, 0.0, 0.0, 0.0, 0.0017435775352084117]
---
header: 
  seq: 87
  stamp: 
    secs: 1513423206
    nsecs: 466309065
  frame_id: map
pose: 
  pose: 
    position: 
      x: 3.20396288665
      y: 14.3604921801
      z: 0.0
    orientation: 
      x: 0.0
      y: 0.0
      z: 0.999717093011
      w: 0.0237851622253
  covariance: [0.008893472267226699, 0.0001462844830015797, 0.0, 0.0, 0.0, 0.0, 0.00014628448298736885, 0.005194245929686758, 0.0, 0.0, 0.0, 0.0, 0.0, 0.0, 0.0, 0.0, 0.0, 0.0, 0.0, 0.0, 0.0, 0.0, 0.0, 0.0, 0.0, 0.0, 0.0, 0.0, 0.0, 0.0, 0.0, 0.0, 0.0, 0.0, 0.0, 0.0017720837198405132]
---
header: 
  seq: 88
  stamp: 
    secs: 1513423210
    nsecs: 248205715
  frame_id: map
pose: 
  pose: 
    position: 
      x: 2.71917047676
      y: 14.3612460369
      z: 0.0
    orientation: 
      x: 0.0
      y: 0.0
      z: 0.999809440424
      w: 0.0195213431706
  covariance: [0.007657153596346333, -6.007241624672588e-05, 0.0, 0.0, 0.0, 0.0, -6.007241624672588e-05, 0.0055557687281861945, 0.0, 0.0, 0.0, 0.0, 0.0, 0.0, 0.0, 0.0, 0.0, 0.0, 0.0, 0.0, 0.0, 0.0, 0.0, 0.0, 0.0, 0.0, 0.0, 0.0, 0.0, 0.0, 0.0, 0.0, 0.0, 0.0, 0.0, 0.002061299788078756]
---
header: 
  seq: 89
  stamp: 
    secs: 1513423214
    nsecs:  29695795
  frame_id: map
pose: 
  pose: 
    position: 
      x: 2.2369928542
      y: 14.3607269377
      z: 0.0
    orientation: 
      x: 0.0
      y: 0.0
      z: 0.999914540807
      w: 0.0130732965472
  covariance: [0.008855093847854434, 3.0244425495595806e-05, 0.0, 0.0, 0.0, 0.0, 3.0244425495595806e-05, 0.005534259816329268, 0.0, 0.0, 0.0, 0.0, 0.0, 0.0, 0.0, 0.0, 0.0, 0.0, 0.0, 0.0, 0.0, 0.0, 0.0, 0.0, 0.0, 0.0, 0.0, 0.0, 0.0, 0.0, 0.0, 0.0, 0.0, 0.0, 0.0, 0.0020478994763511943]
---
header: 
  seq: 90
  stamp: 
    secs: 1513423220
    nsecs: 497811752
  frame_id: map
pose: 
  pose: 
    position: 
      x: 1.76553500329
      y: 14.3490597414
      z: 0.0
    orientation: 
      x: 0.0
      y: 0.0
      z: 0.999975443378
      w: 0.00700804122327
  covariance: [0.008870839776043304, -0.00025422794563922935, 0.0, 0.0, 0.0, 0.0, -0.0002542279456321239, 0.004807215980207502, 0.0, 0.0, 0.0, 0.0, 0.0, 0.0, 0.0, 0.0, 0.0, 0.0, 0.0, 0.0, 0.0, 0.0, 0.0, 0.0, 0.0, 0.0, 0.0, 0.0, 0.0, 0.0, 0.0, 0.0, 0.0, 0.0, 0.0, 0.0018930323727169322]
---
header: 
  seq: 91
  stamp: 
    secs: 1513423227
    nsecs: 264349327
  frame_id: map
pose: 
  pose: 
    position: 
      x: 1.28522693155
      y: 14.3444556553
      z: 0.0
    orientation: 
      x: 0.0
      y: 0.0
      z: 0.999996581977
      w: 0.00261458109471
  covariance: [0.008893644033975079, -5.0734290866216725e-06, 0.0, 0.0, 0.0, 0.0, -5.0734290866216725e-06, 0.005258630407695364, 0.0, 0.0, 0.0, 0.0, 0.0, 0.0, 0.0, 0.0, 0.0, 0.0, 0.0, 0.0, 0.0, 0.0, 0.0, 0.0, 0.0, 0.0, 0.0, 0.0, 0.0, 0.0, 0.0, 0.0, 0.0, 0.0, 0.0, 0.0021991875616989205]
---
header: 
  seq: 92
  stamp: 
    secs: 1513423231
    nsecs:  45966605
  frame_id: map
pose: 
  pose: 
    position: 
      x: 0.791947411193
      y: 14.3303705687
      z: 0.0
    orientation: 
      x: 0.0
      y: 0.0
      z: -0.999999999986
      w: 5.21823792669e-06
  covariance: [0.007488006650699486, 0.00045708821156154045, 0.0, 0.0, 0.0, 0.0, 0.0004570882115597641, 0.0049643236166048155, 0.0, 0.0, 0.0, 0.0, 0.0, 0.0, 0.0, 0.0, 0.0, 0.0, 0.0, 0.0, 0.0, 0.0, 0.0, 0.0, 0.0, 0.0, 0.0, 0.0, 0.0, 0.0, 0.0, 0.0, 0.0, 0.0, 0.0, 0.0017570225854469605]
---
header: 
  seq: 93
  stamp: 
    secs: 1513423234
    nsecs: 826487551
  frame_id: map
pose: 
  pose: 
    position: 
      x: 0.304853573613
      y: 14.3168602462
      z: 0.0
    orientation: 
      x: 0.0
      y: 0.0
      z: -0.99999059399
      w: 0.00433727229164
  covariance: [0.007943311992511665, 0.0002257457200354196, 0.0, 0.0, 0.0, 0.0, 0.00022574572003453142, 0.005023116291852148, 0.0, 0.0, 0.0, 0.0, 0.0, 0.0, 0.0, 0.0, 0.0, 0.0, 0.0, 0.0, 0.0, 0.0, 0.0, 0.0, 0.0, 0.0, 0.0, 0.0, 0.0, 0.0, 0.0, 0.0, 0.0, 0.0, 0.0, 0.0019465637402895743]
---
header: 
  seq: 94
  stamp: 
    secs: 1513423238
    nsecs: 906242387
  frame_id: map
pose: 
  pose: 
    position: 
      x: -0.152290799189
      y: 14.2551428716
      z: 0.0
    orientation: 
      x: 0.0
      y: 0.0
      z: -0.969260965062
      w: 0.246034919486
  covariance: [0.007364260008031292, 0.0011101525823598024, 0.0, 0.0, 0.0, 0.0, 0.0011101525823593583, 0.005388908302052187, 0.0, 0.0, 0.0, 0.0, 0.0, 0.0, 0.0, 0.0, 0.0, 0.0, 0.0, 0.0, 0.0, 0.0, 0.0, 0.0, 0.0, 0.0, 0.0, 0.0, 0.0, 0.0, 0.0, 0.0, 0.0, 0.0, 0.0, 0.0024475338306083716]
---
header: 
  seq: 95
  stamp: 
    secs: 1513423247
    nsecs: 563650065
  frame_id: map
pose: 
  pose: 
    position: 
      x: -0.529420842315
      y: 14.0404569833
      z: 0.0
    orientation: 
      x: 0.0
      y: 0.0
      z: -0.965840665091
      w: 0.259136662123
  covariance: [0.006170116130530812, 0.0007172521498928219, 0.0, 0.0, 0.0, 0.0, 0.0007172521498937101, 0.006351949468978546, 0.0, 0.0, 0.0, 0.0, 0.0, 0.0, 0.0, 0.0, 0.0, 0.0, 0.0, 0.0, 0.0, 0.0, 0.0, 0.0, 0.0, 0.0, 0.0, 0.0, 0.0, 0.0, 0.0, 0.0, 0.0, 0.0, 0.0, 0.0026451381226310147]
---
header: 
  seq: 96
  stamp: 
    secs: 1513423252
    nsecs: 141460165
  frame_id: map
pose: 
  pose: 
    position: 
      x: -0.799158217875
      y: 13.6217405955
      z: 0.0
    orientation: 
      x: 0.0
      y: 0.0
      z: -0.768009544018
      w: 0.640438396958
  covariance: [0.004401231676014694, 0.0013090872142953458, 0.0, 0.0, 0.0, 0.0, 0.0013090872142971222, 0.010104725290887018, 0.0, 0.0, 0.0, 0.0, 0.0, 0.0, 0.0, 0.0, 0.0, 0.0, 0.0, 0.0, 0.0, 0.0, 0.0, 0.0, 0.0, 0.0, 0.0, 0.0, 0.0, 0.0, 0.0, 0.0, 0.0, 0.0, 0.0, 0.0047672041520999365]
---
header: 
  seq: 97
  stamp: 
    secs: 1513423256
    nsecs: 321112957
  frame_id: map
pose: 
  pose: 
    position: 
      x: -0.903582206194
      y: 13.0949927091
      z: 0.0
    orientation: 
      x: 0.0
      y: 0.0
      z: -0.768631510955
      w: 0.639691801079
  covariance: [0.004636316100320781, -0.0007469988569326347, 0.0, 0.0, 0.0, 0.0, -0.0007469988569326347, 0.011584163391461288, 0.0, 0.0, 0.0, 0.0, 0.0, 0.0, 0.0, 0.0, 0.0, 0.0, 0.0, 0.0, 0.0, 0.0, 0.0, 0.0, 0.0, 0.0, 0.0, 0.0, 0.0, 0.0, 0.0, 0.0, 0.0, 0.0, 0.0, 0.005019626876555969]
---
header: 
  seq: 98
  stamp: 
    secs: 1513423260
    nsecs: 301955836
  frame_id: map
pose: 
  pose: 
    position: 
      x: -0.94249792286
      y: 12.5810206899
      z: 0.0
    orientation: 
      x: 0.0
      y: 0.0
      z: -0.714419822308
      w: 0.699717312558
  covariance: [0.007182454081886225, -0.0028535875849442505, 0.0, 0.0, 0.0, 0.0, -0.002853587584946027, 0.010095917244484554, 0.0, 0.0, 0.0, 0.0, 0.0, 0.0, 0.0, 0.0, 0.0, 0.0, 0.0, 0.0, 0.0, 0.0, 0.0, 0.0, 0.0, 0.0, 0.0, 0.0, 0.0, 0.0, 0.0, 0.0, 0.0, 0.0, 0.0, 0.00474430497166899]
---
header: 
  seq: 99
  stamp: 
    secs: 1513423264
    nsecs:  83252583
  frame_id: map
pose: 
  pose: 
    position: 
      x: -0.929299151114
      y: 12.098684624
      z: 0.0
    orientation: 
      x: 0.0
      y: 0.0
      z: -0.68433613306
      w: 0.729166686697
  covariance: [0.009059735681575587, -0.0032862946825549244, 0.0, 0.0, 0.0, 0.0, -0.0032862946825549244, 0.01057110755672852, 0.0, 0.0, 0.0, 0.0, 0.0, 0.0, 0.0, 0.0, 0.0, 0.0, 0.0, 0.0, 0.0, 0.0, 0.0, 0.0, 0.0, 0.0, 0.0, 0.0, 0.0, 0.0, 0.0, 0.0, 0.0, 0.0, 0.0, 0.0038557552639281213]
---
header: 
  seq: 100
  stamp: 
    secs: 1513423267
    nsecs: 665443080
  frame_id: map
pose: 
  pose: 
    position: 
      x: -0.880171739168
      y: 11.6379897155
      z: 0.0
    orientation: 
      x: 0.0
      y: 0.0
      z: -0.681568071049
      w: 0.731754716094
  covariance: [0.008077738520384736, -0.0020806053259612156, 0.0, 0.0, 0.0, 0.0, -0.0020806053259612156, 0.010005994877531066, 0.0, 0.0, 0.0, 0.0, 0.0, 0.0, 0.0, 0.0, 0.0, 0.0, 0.0, 0.0, 0.0, 0.0, 0.0, 0.0, 0.0, 0.0, 0.0, 0.0, 0.0, 0.0, 0.0, 0.0, 0.0, 0.0, 0.0, 0.0027789977392689335]
---
header: 
  seq: 101
  stamp: 
    secs: 1513423271
    nsecs: 247698588
  frame_id: map
pose: 
  pose: 
    position: 
      x: -0.841653035644
      y: 11.1886060685
      z: 0.0
    orientation: 
      x: 0.0
      y: 0.0
      z: -0.680451845458
      w: 0.732792798827
  covariance: [0.006438328404658744, -0.000697422471597875, 0.0, 0.0, 0.0, 0.0, -0.000697422471597875, 0.009378687085813908, 0.0, 0.0, 0.0, 0.0, 0.0, 0.0, 0.0, 0.0, 0.0, 0.0, 0.0, 0.0, 0.0, 0.0, 0.0, 0.0, 0.0, 0.0, 0.0, 0.0, 0.0, 0.0, 0.0, 0.0, 0.0, 0.0, 0.0, 0.002351402793590154]
---
header: 
  seq: 102
  stamp: 
    secs: 1513423274
    nsecs: 830094645
  frame_id: map
pose: 
  pose: 
    position: 
      x: -0.800326121625
      y: 10.7449130618
      z: 0.0
    orientation: 
      x: 0.0
      y: 0.0
      z: -0.679175679236
      w: 0.733975746694
  covariance: [0.005899513501476106, -0.0004853839666072446, 0.0, 0.0, 0.0, 0.0, -0.0004853839666072446, 0.01040753954146112, 0.0, 0.0, 0.0, 0.0, 0.0, 0.0, 0.0, 0.0, 0.0, 0.0, 0.0, 0.0, 0.0, 0.0, 0.0, 0.0, 0.0, 0.0, 0.0, 0.0, 0.0, 0.0, 0.0, 0.0, 0.0, 0.0, 0.0, 0.0024013422207103336]
---
header: 
  seq: 103
  stamp: 
    secs: 1513423278
    nsecs: 412663394
  frame_id: map
pose: 
  pose: 
    position: 
      x: -0.751493969944
      y: 10.2953000652
      z: 0.0
    orientation: 
      x: 0.0
      y: 0.0
      z: -0.675868699708
      w: 0.737022049029
  covariance: [0.006503242614778526, 0.00028962215289940474, 0.0, 0.0, 0.0, 0.0, 0.00028962215289940474, 0.008446225294008514, 0.0, 0.0, 0.0, 0.0, 0.0, 0.0, 0.0, 0.0, 0.0, 0.0, 0.0, 0.0, 0.0, 0.0, 0.0, 0.0, 0.0, 0.0, 0.0, 0.0, 0.0, 0.0, 0.0, 0.0, 0.0, 0.0, 0.0, 0.002471113754716514]
---
header: 
  seq: 104
  stamp: 
    secs: 1513423281
    nsecs: 995161654
  frame_id: map
pose: 
  pose: 
    position: 
      x: -0.69798896347
      y: 9.84941440991
      z: 0.0
    orientation: 
      x: 0.0
      y: 0.0
      z: -0.678255394793
      w: 0.734826251187
  covariance: [0.0067215200036847, -0.0004041601198014888, 0.0, 0.0, 0.0, 0.0, -0.0004041601198014888, 0.009714435726635884, 0.0, 0.0, 0.0, 0.0, 0.0, 0.0, 0.0, 0.0, 0.0, 0.0, 0.0, 0.0, 0.0, 0.0, 0.0, 0.0, 0.0, 0.0, 0.0, 0.0, 0.0, 0.0, 0.0, 0.0, 0.0, 0.0, 0.0, 0.0024137299528757413]
---
header: 
  seq: 105
  stamp: 
    secs: 1513423287
    nsecs: 567841139
  frame_id: map
pose: 
  pose: 
    position: 
      x: -0.653831394797
      y: 9.37993763919
      z: 0.0
    orientation: 
      x: 0.0
      y: 0.0
      z: -0.689578000678
      w: 0.724211420085
  covariance: [0.007602306801778647, -3.555005243960352e-06, 0.0, 0.0, 0.0, 0.0, -3.5550052430721735e-06, 0.009566972625123071, 0.0, 0.0, 0.0, 0.0, 0.0, 0.0, 0.0, 0.0, 0.0, 0.0, 0.0, 0.0, 0.0, 0.0, 0.0, 0.0, 0.0, 0.0, 0.0, 0.0, 0.0, 0.0, 0.0, 0.0, 0.0, 0.0, 0.0, 0.002404279777684439]
---
header: 
  seq: 106
  stamp: 
    secs: 1513423291
    nsecs: 349416918
  frame_id: map
pose: 
  pose: 
    position: 
      x: -0.593628919893
      y: 8.90908219273
      z: 0.0
    orientation: 
      x: 0.0
      y: 0.0
      z: -0.683442323225
      w: 0.730004514249
  covariance: [0.006820983542750458, 0.00033048066552954225, 0.0, 0.0, 0.0, 0.0, 0.00033048066552954225, 0.007605592954760709, 0.0, 0.0, 0.0, 0.0, 0.0, 0.0, 0.0, 0.0, 0.0, 0.0, 0.0, 0.0, 0.0, 0.0, 0.0, 0.0, 0.0, 0.0, 0.0, 0.0, 0.0, 0.0, 0.0, 0.0, 0.0, 0.0, 0.0, 0.00253020921052636]
---
header: 
  seq: 107
  stamp: 
    secs: 1513423296
    nsecs: 822614190
  frame_id: map
pose: 
  pose: 
    position: 
      x: -0.536771968187
      y: 8.44109900501
      z: 0.0
    orientation: 
      x: 0.0
      y: 0.0
      z: -0.679299713088
      w: 0.733860953995
